[
  {
    "zip": 98001,
    "city": "Auburn",
    "latitude": 47.303722,
    "longitude": -122.26608,
    "QoQ": 0.0308579179382842,
    "YoY": 0.143286949981196,
    "MoM": 0.0106382978723404,
    "price": 172
  },
  {
    "zip": 98002,
    "city": "Auburn",
    "latitude": 47.304221,
    "longitude": -122.21602,
    "QoQ": 0.0478610758153325,
    "YoY": 0.141670512228888,
    "MoM": 0.019365471775855,
    "price": 174
  },
  {
    "zip": 98003,
    "city": "Federal Way",
    "latitude": 47.311072,
    "longitude": -122.31188,
    "QoQ": 0.0420397041650448,
    "YoY": 0.12384550797649,
    "MoM": 0.0155538694992413,
    "price": 168
  },
  {
    "zip": 98004,
    "city": "Bellevue",
    "latitude": 47.618371,
    "longitude": -122.20308,
    "QoQ": 0.02872646026173,
    "YoY": 0.124433073613211,
    "MoM": 0.0114016736401674,
    "price": 522
  },
  {
    "zip": 98005,
    "city": "Bellevue",
    "latitude": 47.611021,
    "longitude": -122.16858,
    "QoQ": 0.00725806451612903,
    "YoY": 0.125732311852186,
    "MoM": 0.000534045393858478,
    "price": 344
  },
  {
    "zip": 98006,
    "city": "Bellevue",
    "latitude": 47.562975,
    "longitude": -122.1526,
    "QoQ": 0.0346414073071719,
    "YoY": 0.12623361319782,
    "MoM": 0.0166201303018216,
    "price": 318
  },
  {
    "zip": 98007,
    "city": "Bellevue",
    "latitude": 47.610935,
    "longitude": -122.14104,
    "QoQ": 0.0174429748897834,
    "YoY": 0.126724686902993,
    "MoM": 0.00721062618595825,
    "price": 295
  },
  {
    "zip": 98008,
    "city": "Bellevue",
    "latitude": 47.609222,
    "longitude": -122.1155,
    "QoQ": 0.0211843202668891,
    "YoY": 0.108054298642534,
    "MoM": 0.0084005929830341,
    "price": 322
  },
  {
    "zip": 98010,
    "city": "Black Diamond",
    "latitude": 47.317802,
    "longitude": -122.01479,
    "QoQ": 0.0409115870400879,
    "YoY": 0.0934525526391693,
    "MoM": 0.0163538873994638,
    "price": 214
  },
  {
    "zip": 98011,
    "city": "Bothell",
    "latitude": 47.751471,
    "longitude": -122.20257,
    "QoQ": 0.0397775876817793,
    "YoY": 0.0869662418958194,
    "MoM": 0.0182198952879581,
    "price": 247
  },
  {
    "zip": 98012,
    "city": "Bothell",
    "latitude": 47.84311,
    "longitude": -122.20457,
    "QoQ": 0.0228665723715229,
    "YoY": 0.117434972959052,
    "MoM": 0.00696217219772569,
    "price": 214
  },
  {
    "zip": 98014,
    "city": "Carnation",
    "latitude": 47.648232,
    "longitude": -121.91265,
    "QoQ": 0.0188679245283019,
    "YoY": 0.0983860269732478,
    "MoM": 0.0038391594261467,
    "price": 256
  },
  {
    "zip": 98019,
    "city": "Duvall",
    "latitude": 47.7353,
    "longitude": -121.96222,
    "QoQ": 0.00393782383419689,
    "YoY": 0.102412380518889,
    "MoM": -0.00164880461665293,
    "price": 234
  },
  {
    "zip": 98020,
    "city": "Edmonds",
    "latitude": 47.803668,
    "longitude": -122.37096,
    "QoQ": 0.0207839562443026,
    "YoY": 0.133400809716599,
    "MoM": 0.00683330336270455,
    "price": 293
  },
  {
    "zip": 98021,
    "city": "Bothell",
    "latitude": 47.790653,
    "longitude": -122.22021,
    "QoQ": 0.0211946050096339,
    "YoY": 0.124469589816124,
    "MoM": 0.00675390460109751,
    "price": 228
  },
  {
    "zip": 98022,
    "city": "Enumclaw",
    "latitude": 47.193729,
    "longitude": -121.91915,
    "QoQ": 0.0200865265760198,
    "YoY": 0.0638092168868837,
    "MoM": 0.00640243902439024,
    "price": 195
  },
  {
    "zip": 98023,
    "city": "Federal Way",
    "latitude": 47.309021,
    "longitude": -122.36178,
    "QoQ": 0.0336134453781513,
    "YoY": 0.118588577664605,
    "MoM": 0.0111805327195002,
    "price": 167
  },
  {
    "zip": 98024,
    "city": "Fall City",
    "latitude": 47.565642,
    "longitude": -121.88638,
    "QoQ": 0.0154011461318052,
    "YoY": 0.0994764397905759,
    "MoM": 0.00817923186344239,
    "price": 282
  },
  {
    "zip": 98026,
    "city": "Edmonds",
    "latitude": 47.821568,
    "longitude": -122.33651,
    "QoQ": 0.0225837785332686,
    "YoY": 0.124432576769025,
    "MoM": 0.00693448110951698,
    "price": 229
  },
  {
    "zip": 98027,
    "city": "Issaquah",
    "latitude": 47.522828,
    "longitude": -122.02921,
    "QoQ": 0.0335215243472124,
    "YoY": 0.11220808809569,
    "MoM": 0.0143722943722944,
    "price": 274
  },
  {
    "zip": 98028,
    "city": "Kenmore",
    "latitude": 47.75287,
    "longitude": -122.24736,
    "QoQ": 0.0317591255929058,
    "YoY": 0.104171264621496,
    "MoM": 0.0119336569579288,
    "price": 247
  },
  {
    "zip": 98029,
    "city": "Issaquah",
    "latitude": 47.572401,
    "longitude": -122.02065,
    "QoQ": 0.0243006993006993,
    "YoY": 0.110921501706485,
    "MoM": 0.00756663800515907,
    "price": 290
  },
  {
    "zip": 98030,
    "city": "Kent",
    "latitude": 47.369098,
    "longitude": -122.192276,
    "QoQ": 0.0196399345335516,
    "YoY": 0.136032093362509,
    "MoM": 0.00483870967741936,
    "price": 169
  },
  {
    "zip": 98031,
    "city": "Kent",
    "latitude": 47.388461,
    "longitude": -122.19644,
    "QoQ": 0.0335195530726257,
    "YoY": 0.145116918844567,
    "MoM": 0.00970285021224985,
    "price": 178
  },
  {
    "zip": 98032,
    "city": "Kent",
    "latitude": 47.388254,
    "longitude": -122.25932,
    "QoQ": 0.0458784035807535,
    "YoY": 0.138911454102356,
    "MoM": 0.012639942217407,
    "price": 179
  },
  {
    "zip": 98033,
    "city": "Kirkland",
    "latitude": 47.67903,
    "longitude": -122.1934,
    "QoQ": 0.0388278388278388,
    "YoY": 0.137859091638581,
    "MoM": 0.0138710138710139,
    "price": 384
  },
  {
    "zip": 98034,
    "city": "Kirkland",
    "latitude": 47.71828,
    "longitude": -122.19702,
    "QoQ": 0.0421765734265734,
    "YoY": 0.11738519212746,
    "MoM": 0.0148967865503299,
    "price": 272
  },
  {
    "zip": 98036,
    "city": "Lynnwood",
    "latitude": 47.808816,
    "longitude": -122.28394,
    "QoQ": 0.0195974576271186,
    "YoY": 0.117237376668601,
    "MoM": 0.00522193211488251,
    "price": 217
  },
  {
    "zip": 98037,
    "city": "Lynnwood",
    "latitude": 47.848237,
    "longitude": -122.28348,
    "QoQ": 0.0231182795698925,
    "YoY": 0.110592354829297,
    "MoM": 0.00687830687830688,
    "price": 204
  },
  {
    "zip": 98038,
    "city": "Maple Valley",
    "latitude": 47.381989,
    "longitude": -122.03553,
    "QoQ": 0.0292942743009321,
    "YoY": 0.112230215827338,
    "MoM": 0.0120450379680545,
    "price": 195
  },
  {
    "zip": 98039,
    "city": "Medina",
    "latitude": 47.626571,
    "longitude": -122.2328,
    "QoQ": 0.0160744500846024,
    "YoY": 0.163522333265348,
    "MoM": 0.00652816373340391,
    "price": 715
  },
  {
    "zip": 98040,
    "city": "Mercer Island",
    "latitude": 47.569271,
    "longitude": -122.23233,
    "QoQ": 0.0395232670230479,
    "YoY": 0.139590738783745,
    "MoM": 0.0174114418046145,
    "price": 447
  },
  {
    "zip": 98042,
    "city": "Kent",
    "latitude": 47.363382,
    "longitude": -122.11451,
    "QoQ": 0.0267220902612827,
    "YoY": 0.103734439834025,
    "MoM": 0.0102249488752556,
    "price": 179
  },
  {
    "zip": 98043,
    "city": "Mountlake Terrace",
    "latitude": 47.790969,
    "longitude": -122.30539,
    "QoQ": 0.0393056010481494,
    "YoY": 0.120805369127517,
    "MoM": 0.0134142446502715,
    "price": 223
  },
  {
    "zip": 98045,
    "city": "North Bend",
    "latitude": 47.483057,
    "longitude": -121.73254,
    "QoQ": 0.0177500599664188,
    "YoY": 0.105235738473561,
    "MoM": 0.00783847980997625,
    "price": 245
  },
  {
    "zip": 98047,
    "city": "Pacific",
    "latitude": 47.26619,
    "longitude": -122.24463,
    "QoQ": 0.0161290322580645,
    "YoY": 0.065989847715736,
    "MoM": 0.00438421681944998,
    "price": 163
  },
  {
    "zip": 98051,
    "city": "Ravensdale",
    "latitude": 47.359414,
    "longitude": -121.88657,
    "QoQ": 0.0426673479816045,
    "YoY": 0.0373665480427046,
    "MoM": 0.0215269086357947,
    "price": 210
  },
  {
    "zip": 98052,
    "city": "Redmond",
    "latitude": 47.677471,
    "longitude": -122.12138,
    "QoQ": 0.0265202702702703,
    "YoY": 0.106921675774135,
    "MoM": 0.0118215118215118,
    "price": 302
  },
  {
    "zip": 98053,
    "city": "Redmond",
    "latitude": 47.640972,
    "longitude": -122.03318,
    "QoQ": 0.0274693161893629,
    "YoY": 0.0937937470835278,
    "MoM": 0.00860585197934595,
    "price": 294
  },
  {
    "zip": 98055,
    "city": "Renton",
    "latitude": 47.467422,
    "longitude": -122.21005,
    "QoQ": 0.0303867403314917,
    "YoY": 0.154401650618982,
    "MoM": 0.00932050511124474,
    "price": 188
  },
  {
    "zip": 98056,
    "city": "Renton",
    "latitude": 47.510739,
    "longitude": -122.18372,
    "QoQ": 0.0340686274509804,
    "YoY": 0.153677878042111,
    "MoM": 0.0119932837610938,
    "price": 240
  },
  {
    "zip": 98057,
    "city": "Renton",
    "latitude": 47.432251,
    "longitude": -121.803388,
    "QoQ": 0.0322820037105751,
    "YoY": 0.10484511517077,
    "MoM": 0.00870195794053662,
    "price": 201
  },
  {
    "zip": 98058,
    "city": "Renton",
    "latitude": 47.448322,
    "longitude": -122.14584,
    "QoQ": 0.0250855188141391,
    "YoY": 0.111591962905719,
    "MoM": 0.0101123595505618,
    "price": 193
  },
  {
    "zip": 98059,
    "city": "Renton",
    "latitude": 47.493031,
    "longitude": -122.14169,
    "QoQ": 0.0299591466182478,
    "YoY": 0.0998545807077072,
    "MoM": 0.012042818911686,
    "price": 224
  },
  {
    "zip": 98065,
    "city": "Snoqualmie",
    "latitude": 47.530639,
    "longitude": -121.83053,
    "QoQ": 0.0352056962025316,
    "YoY": 0.120530935559837,
    "MoM": 0.0133591481122943,
    "price": 233
  },
  {
    "zip": 98070,
    "city": "Vashon",
    "latitude": 47.416198,
    "longitude": -122.46821,
    "QoQ": 0.0376075215043009,
    "YoY": 0.124918672739102,
    "MoM": 0.0156647738398277,
    "price": 301
  },
  {
    "zip": 98072,
    "city": "Woodinville",
    "latitude": 47.758786,
    "longitude": -122.10205,
    "QoQ": 0.0286165730337079,
    "YoY": 0.111342943854325,
    "MoM": 0.0113930605903677,
    "price": 263
  },
  {
    "zip": 98074,
    "city": "Sammamish",
    "latitude": 47.625364,
    "longitude": -122.045347,
    "QoQ": 0.0306430729391454,
    "YoY": 0.12112676056338,
    "MoM": 0.00901408450704225,
    "price": 287
  },
  {
    "zip": 98075,
    "city": "Sammamish",
    "latitude": 47.584879,
    "longitude": -122.033685,
    "QoQ": 0.0225213890286865,
    "YoY": 0.0679369250985545,
    "MoM": 0.00668896321070234,
    "price": 280
  },
  {
    "zip": 98092,
    "city": "Auburn",
    "latitude": 47.297285,
    "longitude": -122.16328,
    "QoQ": 0.021055753262159,
    "YoY": 0.113158745554478,
    "MoM": 0.00731421884142774,
    "price": 168
  },
  {
    "zip": 98101,
    "city": "Seattle",
    "latitude": 47.61067,
    "longitude": -122.33438,
    "QoQ": 0.0634227490122687,
    "YoY": 0.164654976087452,
    "MoM": 0.0175089534421011,
    "price": 605
  },
  {
    "zip": 98102,
    "city": "Seattle",
    "latitude": 47.63287,
    "longitude": -122.32253,
    "QoQ": 0.0412249705535925,
    "YoY": 0.224659432001847,
    "MoM": 0.0100933155589412,
    "price": 503
  },
  {
    "zip": 98103,
    "city": "Seattle",
    "latitude": 47.671346,
    "longitude": -122.34166,
    "QoQ": 0.0352537946792884,
    "YoY": 0.182513049962714,
    "MoM": 0.0143930913161682,
    "price": 444
  },
  {
    "zip": 98104,
    "city": "Seattle",
    "latitude": 47.60252,
    "longitude": -122.32855,
    "QoQ": 0.0380026513477685,
    "YoY": 0.177148584314708,
    "MoM": 0.0166630599437351,
    "price": 475
  },
  {
    "zip": 98105,
    "city": "Seattle",
    "latitude": 47.66377,
    "longitude": -122.30118,
    "QoQ": 0.0357095796547635,
    "YoY": 0.175239234449761,
    "MoM": 0.0155038759689922,
    "price": 457
  },
  {
    "zip": 98106,
    "city": "Seattle",
    "latitude": 47.53282,
    "longitude": -122.35443,
    "QoQ": 0.0382608695652174,
    "YoY": 0.169823644676682,
    "MoM": 0.0130090497737557,
    "price": 267
  },
  {
    "zip": 98107,
    "city": "Seattle",
    "latitude": 47.66747,
    "longitude": -122.37468,
    "QoQ": 0.0430145130267529,
    "YoY": 0.174443788147273,
    "MoM": 0.0142832851555858,
    "price": 446
  },
  {
    "zip": 98108,
    "city": "Seattle",
    "latitude": 47.546188,
    "longitude": -122.31514,
    "QoQ": 0.0338676318510858,
    "YoY": 0.128704487722269,
    "MoM": 0.0206738131699847,
    "price": 253
  },
  {
    "zip": 98109,
    "city": "Seattle",
    "latitude": 47.630648,
    "longitude": -122.34675,
    "QoQ": 0.0225697529767194,
    "YoY": 0.169987799918666,
    "MoM": 0.00156657963446475,
    "price": 491
  },
  {
    "zip": 98110,
    "city": "Bainbridge Island",
    "latitude": 47.65526,
    "longitude": -122.53508,
    "QoQ": 0.0343529411764706,
    "YoY": 0.151991614255765,
    "MoM": 0.0102650528573617,
    "price": 324
  },
  {
    "zip": 98112,
    "city": "Seattle",
    "latitude": 47.629653,
    "longitude": -122.29752,
    "QoQ": 0.0560260586319218,
    "YoY": 0.159928443649374,
    "MoM": 0.021745981720769,
    "price": 527
  },
  {
    "zip": 98115,
    "city": "Seattle",
    "latitude": 47.68382,
    "longitude": -122.30122,
    "QoQ": 0.0322890025575448,
    "YoY": 0.146661931818182,
    "MoM": 0.0131785378098525,
    "price": 393
  },
  {
    "zip": 98116,
    "city": "Seattle",
    "latitude": 47.57487,
    "longitude": -122.39392,
    "QoQ": 0.0283414388730505,
    "YoY": 0.141261864879955,
    "MoM": 0.0117142385744927,
    "price": 405
  },
  {
    "zip": 98117,
    "city": "Seattle",
    "latitude": 47.685919,
    "longitude": -122.37838,
    "QoQ": 0.0350142402412464,
    "YoY": 0.134202313199927,
    "MoM": 0.0142833689049417,
    "price": 409
  },
  {
    "zip": 98118,
    "city": "Seattle",
    "latitude": 47.543348,
    "longitude": -122.27496,
    "QoQ": 0.0225394440270473,
    "YoY": 0.131024930747922,
    "MoM": 0.0098936433341578,
    "price": 272
  },
  {
    "zip": 98119,
    "city": "Seattle",
    "latitude": 47.63877,
    "longitude": -122.36694,
    "QoQ": 0.00383522727272727,
    "YoY": 0.101293439301854,
    "MoM": -0.000565690849950502,
    "price": 477
  },
  {
    "zip": 98121,
    "city": "Seattle",
    "latitude": 47.61487,
    "longitude": -122.34578,
    "QoQ": 0.0260180995475113,
    "YoY": 0.138874937217479,
    "MoM": 0.00598935226264419,
    "price": 593
  },
  {
    "zip": 98122,
    "city": "Seattle",
    "latitude": 47.61157,
    "longitude": -122.30406,
    "QoQ": 0.0405212424134238,
    "YoY": 0.184034125533211,
    "MoM": 0.0172774869109948,
    "price": 450
  },
  {
    "zip": 98125,
    "city": "Seattle",
    "latitude": 47.716648,
    "longitude": -122.30308,
    "QoQ": 0.0520405959835889,
    "YoY": 0.161936560934891,
    "MoM": 0.0188205771643664,
    "price": 308
  },
  {
    "zip": 98126,
    "city": "Seattle",
    "latitude": 47.54687,
    "longitude": -122.3748,
    "QoQ": 0.0315121287689866,
    "YoY": 0.172076249356002,
    "MoM": 0.0102131438721137,
    "price": 342
  },
  {
    "zip": 98133,
    "city": "Seattle",
    "latitude": 47.733852,
    "longitude": -122.34461,
    "QoQ": 0.037539355776217,
    "YoY": 0.141791044776119,
    "MoM": 0.0151658767772512,
    "price": 279
  },
  {
    "zip": 98136,
    "city": "Seattle",
    "latitude": 47.538887,
    "longitude": -122.38803,
    "QoQ": 0.0426994753030577,
    "YoY": 0.159090909090909,
    "MoM": 0.0155066079295154,
    "price": 365
  },
  {
    "zip": 98144,
    "city": "Seattle",
    "latitude": 47.58577,
    "longitude": -122.30081,
    "QoQ": 0.0272164948453608,
    "YoY": 0.126130198915009,
    "MoM": 0.016112584132164,
    "price": 343
  },
  {
    "zip": 98146,
    "city": "Seattle",
    "latitude": 47.501753,
    "longitude": -122.35688,
    "QoQ": 0.0566318926974665,
    "YoY": 0.19119623655914,
    "MoM": 0.0201438848920863,
    "price": 244
  },
  {
    "zip": 98148,
    "city": "Seattle",
    "latitude": 47.443756,
    "longitude": -122.33068,
    "QoQ": 0.0431438127090301,
    "YoY": 0.169917479369842,
    "MoM": 0.0176182707993475,
    "price": 200
  },
  {
    "zip": 98155,
    "city": "Seattle",
    "latitude": 47.753019,
    "longitude": -122.30373,
    "QoQ": 0.0407228915662651,
    "YoY": 0.125032560562647,
    "MoM": 0.0176720075400566,
    "price": 263
  },
  {
    "zip": 98166,
    "city": "Seattle",
    "latitude": 47.458821,
    "longitude": -122.34943,
    "QoQ": 0.0334494773519164,
    "YoY": 0.11197200699825,
    "MoM": 0.0150581793292266,
    "price": 249
  },
  {
    "zip": 98168,
    "city": "Seattle",
    "latitude": 47.491327,
    "longitude": -122.3027,
    "QoQ": 0.0475655430711611,
    "YoY": 0.150555327025915,
    "MoM": 0.018201674554059,
    "price": 192
  },
  {
    "zip": 98177,
    "city": "Seattle",
    "latitude": 47.740886,
    "longitude": -122.36978,
    "QoQ": 0.0475790181573638,
    "YoY": 0.151968940654465,
    "MoM": 0.0151515151515152,
    "price": 315
  },
  {
    "zip": 98178,
    "city": "Seattle",
    "latitude": 47.497971,
    "longitude": -122.24664,
    "QoQ": 0.0412728418399496,
    "YoY": 0.160463483146067,
    "MoM": 0.013182096873084,
    "price": 203
  },
  {
    "zip": 98188,
    "city": "Seattle",
    "latitude": 47.450321,
    "longitude": -122.27472,
    "QoQ": 0.0443181818181818,
    "YoY": 0.131773399014778,
    "MoM": 0.0226261127596439,
    "price": 181
  },
  {
    "zip": 98198,
    "city": "Seattle",
    "latitude": 47.397521,
    "longitude": -122.315,
    "QoQ": 0.0278551532033426,
    "YoY": 0.141090065713181,
    "MoM": 0.00888585099111415,
    "price": 192
  },
  {
    "zip": 98199,
    "city": "Seattle",
    "latitude": 47.64767,
    "longitude": -122.39758,
    "QoQ": 0.0563893954271286,
    "YoY": 0.127057767135588,
    "MoM": 0.0242078063375493,
    "price": 416
  },
  {
    "zip": 98201,
    "city": "Everett",
    "latitude": 47.986274,
    "longitude": -122.20222,
    "QoQ": 0.0293267244940107,
    "YoY": 0.096830985915493,
    "MoM": 0.0101337657073368,
    "price": 191
  },
  {
    "zip": 98203,
    "city": "Everett",
    "latitude": 47.943468,
    "longitude": -122.21792,
    "QoQ": 0.0260720411663808,
    "YoY": 0.118967452300786,
    "MoM": 0.00876897133220911,
    "price": 196
  },
  {
    "zip": 98204,
    "city": "Everett",
    "latitude": 47.90296,
    "longitude": -122.25064,
    "QoQ": 0.0332072299285414,
    "YoY": 0.0914742451154529,
    "MoM": 0.00986031224322103,
    "price": 174
  },
  {
    "zip": 98208,
    "city": "Everett",
    "latitude": 47.893451,
    "longitude": -122.19797,
    "QoQ": 0.0213614354884648,
    "YoY": 0.0983154670750383,
    "MoM": 0.00786958965711074,
    "price": 195
  },
  {
    "zip": 98221,
    "city": "Anacortes",
    "latitude": 48.495234,
    "longitude": -122.61976,
    "QoQ": 0.0178777393310265,
    "YoY": 0.0925410089755494,
    "MoM": 0.00742009132420091,
    "price": 224
  },
  {
    "zip": 98223,
    "city": "Arlington",
    "latitude": 48.203856,
    "longitude": -122.05288,
    "QoQ": 0.0218543046357616,
    "YoY": 0.0908448214916932,
    "MoM": 0.00816726559947729,
    "price": 184
  },
  {
    "zip": 98225,
    "city": "Bellingham",
    "latitude": 48.747578,
    "longitude": -122.48508,
    "QoQ": 0.0180091683038638,
    "YoY": 0.0889667250437828,
    "MoM": 0.0054980595084088,
    "price": 216
  },
  {
    "zip": 98226,
    "city": "Bellingham",
    "latitude": 48.759079,
    "longitude": -122.43597,
    "QoQ": 0.0189284568495348,
    "YoY": 0.0661295736824438,
    "MoM": 0.00569981000633312,
    "price": 181
  },
  {
    "zip": 98229,
    "city": "Bellingham",
    "latitude": 48.725417,
    "longitude": -122.435478,
    "QoQ": 0.0146417445482866,
    "YoY": 0.0489533011272142,
    "MoM": 0.00555727076258104,
    "price": 175
  },
  {
    "zip": 98230,
    "city": "Blaine",
    "latitude": 48.961443,
    "longitude": -122.73714,
    "QoQ": 0.0129554655870445,
    "YoY": 0.059720457433291,
    "MoM": 0.00401284109149278,
    "price": 170
  },
  {
    "zip": 98232,
    "city": "Bow",
    "latitude": 48.559548,
    "longitude": -122.41375,
    "QoQ": 0.0483242400623538,
    "YoY": 0.139186900056465,
    "MoM": 0.0133098945253641,
    "price": 219
  },
  {
    "zip": 98233,
    "city": "Burlington",
    "latitude": 48.486892,
    "longitude": -122.33366,
    "QoQ": 0.0239520958083832,
    "YoY": 0.11816907986922,
    "MoM": 0.008,
    "price": 161
  },
  {
    "zip": 98236,
    "city": "Clinton",
    "latitude": 47.962134,
    "longitude": -122.40089,
    "QoQ": 0.0180907319788478,
    "YoY": 0.0615206035983749,
    "MoM": 0.00688136526286815,
    "price": 219
  },
  {
    "zip": 98239,
    "city": "Coupeville",
    "latitude": 48.204162,
    "longitude": -122.66723,
    "QoQ": 0.0260115606936416,
    "YoY": 0.0919343814080656,
    "MoM": 0.0069335014182162,
    "price": 191
  },
  {
    "zip": 98240,
    "city": "Custer",
    "latitude": 48.931679,
    "longitude": -122.63256,
    "QoQ": 0.0162083936324168,
    "YoY": 0.0743574051407589,
    "MoM": 0.0048654836863194,
    "price": 166
  },
  {
    "zip": 98241,
    "city": "Darrington",
    "latitude": 48.265483,
    "longitude": -121.56075,
    "QoQ": 0,
    "YoY": -0.0434265318262939,
    "MoM": 0.00186915887850467,
    "price": 130
  },
  {
    "zip": 98244,
    "city": "Deming",
    "latitude": 48.841442,
    "longitude": -122.12547,
    "QoQ": 0.0128259940145361,
    "YoY": 0.0671171171171171,
    "MoM": 0.00509121764955452,
    "price": 162
  },
  {
    "zip": 98245,
    "city": "Eastsound",
    "latitude": 48.672312,
    "longitude": -122.91972,
    "QoQ": 0.00759318913943856,
    "YoY": 0.046856323213005,
    "MoM": 0.00137205579693574,
    "price": 251
  },
  {
    "zip": 98247,
    "city": "Everson",
    "latitude": 48.900256,
    "longitude": -122.32095,
    "QoQ": 0.0131147540983607,
    "YoY": 0.0393541876892028,
    "MoM": 0.00455136540962289,
    "price": 152
  },
  {
    "zip": 98248,
    "city": "Ferndale",
    "latitude": 48.852655,
    "longitude": -122.61807,
    "QoQ": 0.0200407608695652,
    "YoY": 0.06113074204947,
    "MoM": 0.00636729222520107,
    "price": 168
  },
  {
    "zip": 98249,
    "city": "Freeland",
    "latitude": 48.029176,
    "longitude": -122.54222,
    "QoQ": 0.0157664233576642,
    "YoY": 0.0717806531115219,
    "MoM": 0.00346120565330257,
    "price": 206
  },
  {
    "zip": 98250,
    "city": "Friday Harbor",
    "latitude": 48.55113,
    "longitude": -123.07563,
    "QoQ": -0.00230574129582661,
    "YoY": 0.0454215994201498,
    "MoM": -0.000462000462000462,
    "price": 257
  },
  {
    "zip": 98251,
    "city": "Gold Bar",
    "latitude": 47.851713,
    "longitude": -121.66644,
    "QoQ": 0.037037037037037,
    "YoY": 0.0822596630327057,
    "MoM": 0.0125173852573018,
    "price": 175
  },
  {
    "zip": 98252,
    "city": "Granite Falls",
    "latitude": 48.070852,
    "longitude": -121.82242,
    "QoQ": 0.0280100334448161,
    "YoY": 0.111161319475825,
    "MoM": 0.00985626283367557,
    "price": 178
  },
  {
    "zip": 98253,
    "city": "Greenbank",
    "latitude": 48.085852,
    "longitude": -122.57129,
    "QoQ": 0.0245971162001696,
    "YoY": 0.0766488413547237,
    "MoM": 0.00471305794288883,
    "price": 234
  },
  {
    "zip": 98257,
    "city": "La Conner",
    "latitude": 48.393063,
    "longitude": -122.50476,
    "QoQ": 0.025177025963808,
    "YoY": 0.0378335324571884,
    "MoM": 0.00734441437959026,
    "price": 161
  },
  {
    "zip": 98258,
    "city": "Lake Stevens",
    "latitude": 48.028355,
    "longitude": -122.06327,
    "QoQ": 0.0169708613512648,
    "YoY": 0.113995089442301,
    "MoM": 0.00506329113924051,
    "price": 185
  },
  {
    "zip": 98260,
    "city": "Langley",
    "latitude": 48.030555,
    "longitude": -122.44856,
    "QoQ": 0.0182312925170068,
    "YoY": 0.083068017366136,
    "MoM": 0.00483351235230934,
    "price": 209
  },
  {
    "zip": 98261,
    "city": "Lopez Island",
    "latitude": 48.481655,
    "longitude": -122.88271,
    "QoQ": 0.0269749518304432,
    "YoY": 0.0884955752212389,
    "MoM": 0.00904501472444257,
    "price": 317
  },
  {
    "zip": 98262,
    "city": "Lummi Island",
    "latitude": 48.699642,
    "longitude": -122.66658,
    "QoQ": 0.00526024363233666,
    "YoY": 0.0153803131991051,
    "MoM": 0.00110283981251723,
    "price": 220
  },
  {
    "zip": 98264,
    "city": "Lynden",
    "latitude": 48.943476,
    "longitude": -122.45723,
    "QoQ": 0.0157858613589568,
    "YoY": 0.0862385321100917,
    "MoM": 0.00407055630936228,
    "price": 159
  },
  {
    "zip": 98266,
    "city": "Maple Falls",
    "latitude": 48.853213,
    "longitude": -122.247881,
    "QoQ": 0.0155339805825243,
    "YoY": 0.00706033376123235,
    "MoM": 0.00576923076923077,
    "price": 116
  },
  {
    "zip": 98267,
    "city": "Marblemount",
    "latitude": 48.499159,
    "longitude": -121.43163,
    "QoQ": 0.0808080808080808,
    "YoY": 0.146428571428571,
    "MoM": 0.0275288092189501,
    "price": 151
  },
  {
    "zip": 98270,
    "city": "Marysville",
    "latitude": 48.061269,
    "longitude": -122.1588,
    "QoQ": 0.0236665489226422,
    "YoY": 0.102739726027397,
    "MoM": 0.0072992700729927,
    "price": 175
  },
  {
    "zip": 98271,
    "city": "Marysville",
    "latitude": 48.093129,
    "longitude": -122.21614,
    "QoQ": 0.0208566108007449,
    "YoY": 0.0942115768463074,
    "MoM": 0.00698016164584864,
    "price": 185
  },
  {
    "zip": 98272,
    "city": "Monroe",
    "latitude": 47.860245,
    "longitude": -121.93734,
    "QoQ": 0.0248601615910503,
    "YoY": 0.106711409395973,
    "MoM": 0.00887121443866626,
    "price": 193
  },
  {
    "zip": 98273,
    "city": "Mount Vernon",
    "latitude": 48.414576,
    "longitude": -122.35196,
    "QoQ": 0.0160880609652837,
    "YoY": 0.104463874827428,
    "MoM": 0.0050251256281407,
    "price": 159
  },
  {
    "zip": 98274,
    "city": "Mount Vernon",
    "latitude": 48.371026,
    "longitude": -122.24432,
    "QoQ": 0.0261723009814613,
    "YoY": 0.121127879269261,
    "MoM": 0.00677603423680456,
    "price": 178
  },
  {
    "zip": 98275,
    "city": "Mukilteo",
    "latitude": 47.916148,
    "longitude": -122.30293,
    "QoQ": 0.0224742701113212,
    "YoY": 0.123471036233556,
    "MoM": 0.006408931155675,
    "price": 229
  },
  {
    "zip": 98277,
    "city": "Oak Harbor",
    "latitude": 48.303774,
    "longitude": -122.65093,
    "QoQ": 0.0282242257938063,
    "YoY": 0.12962962962963,
    "MoM": 0.00845828527489427,
    "price": 156
  },
  {
    "zip": 98282,
    "city": "Camano",
    "latitude": 48.185511,
    "longitude": -122.48209,
    "QoQ": 0.0205584535133477,
    "YoY": 0.0718659361907831,
    "MoM": 0.00726832222895215,
    "price": 187
  },
  {
    "zip": 98284,
    "city": "Sedro Woolley",
    "latitude": 48.518653,
    "longitude": -122.16545,
    "QoQ": 0.0206572769953052,
    "YoY": 0.101875316776482,
    "MoM": 0.00834879406307978,
    "price": 157
  },
  {
    "zip": 98290,
    "city": "Snohomish",
    "latitude": 47.930902,
    "longitude": -122.03976,
    "QoQ": 0.0274824993518278,
    "YoY": 0.103899721448468,
    "MoM": 0.00916730328495034,
    "price": 205
  },
  {
    "zip": 98292,
    "city": "Stanwood",
    "latitude": 48.222046,
    "longitude": -122.38961,
    "QoQ": 0.0205083766608897,
    "YoY": 0.092793071450665,
    "MoM": 0.00827625570776256,
    "price": 193
  },
  {
    "zip": 98295,
    "city": "Sumas",
    "latitude": 48.971298,
    "longitude": -122.20146,
    "QoQ": 0.0182315405651778,
    "YoY": 0.0233623453962437,
    "MoM": 0.00857787810383747,
    "price": 130
  },
  {
    "zip": 98296,
    "city": "Snohomish",
    "latitude": 47.846083,
    "longitude": -122.11068,
    "QoQ": 0.022149302707137,
    "YoY": 0.1125,
    "MoM": 0.00788675429726997,
    "price": 216
  },
  {
    "zip": 98303,
    "city": "Anderson Island",
    "latitude": 47.16438,
    "longitude": -122.69584,
    "QoQ": 0.0182952182952183,
    "YoY": 0.0680331443523768,
    "MoM": 0.00410004100041,
    "price": 146
  },
  {
    "zip": 98304,
    "city": "Ashford",
    "latitude": 46.75523,
    "longitude": -122.01544,
    "QoQ": 0.0273504273504274,
    "YoY": 0.0299914310197087,
    "MoM": 0.00585774058577406,
    "price": 136
  },
  {
    "zip": 98310,
    "city": "Bremerton",
    "latitude": 47.58675,
    "longitude": -122.62371,
    "QoQ": 0.0319922443044111,
    "YoY": 0.155181768855128,
    "MoM": 0.00900473933649289,
    "price": 162
  },
  {
    "zip": 98311,
    "city": "Bremerton",
    "latitude": 47.629717,
    "longitude": -122.63493,
    "QoQ": 0.0319872051179528,
    "YoY": 0.122662026968247,
    "MoM": 0.0093859992178334,
    "price": 176
  },
  {
    "zip": 98312,
    "city": "Bremerton",
    "latitude": 47.564437,
    "longitude": -122.71293,
    "QoQ": 0.0226735947094946,
    "YoY": 0.112538540596095,
    "MoM": 0.00697674418604651,
    "price": 167
  },
  {
    "zip": 98320,
    "city": "Brinnon",
    "latitude": 47.705616,
    "longitude": -122.92868,
    "QoQ": 0.0139289145052834,
    "YoY": 0.114572333685322,
    "MoM": 0.00285035629453682,
    "price": 198
  },
  {
    "zip": 98321,
    "city": "Buckley",
    "latitude": 47.155649,
    "longitude": -122.05255,
    "QoQ": 0.0142336974511751,
    "YoY": 0.0946766702393712,
    "MoM": 0.00360301342941369,
    "price": 171
  },
  {
    "zip": 98325,
    "city": "Chimacum",
    "latitude": 47.974586,
    "longitude": -122.78382,
    "QoQ": 0.00392156862745098,
    "YoY": 0.094017094017094,
    "MoM": 0.000390777647518562,
    "price": 164
  },
  {
    "zip": 98327,
    "city": "Dupont",
    "latitude": 47.088719,
    "longitude": -122.64326,
    "QoQ": 0.0081799591002045,
    "YoY": 0.0185950413223141,
    "MoM": 0.00169319336268202,
    "price": 145
  },
  {
    "zip": 98328,
    "city": "Eatonville",
    "latitude": 46.884733,
    "longitude": -122.29237,
    "QoQ": 0.015028901734104,
    "YoY": 0.0321316614420063,
    "MoM": 0.0038109756097561,
    "price": 157
  },
  {
    "zip": 98329,
    "city": "Gig Harbor",
    "latitude": 47.378121,
    "longitude": -122.7222,
    "QoQ": 0.0150214592274678,
    "YoY": 0.0503330866025167,
    "MoM": 0.00566973777462792,
    "price": 161
  },
  {
    "zip": 98332,
    "city": "Gig Harbor",
    "latitude": 47.364321,
    "longitude": -122.60011,
    "QoQ": 0.0150411280846063,
    "YoY": 0.0562484715089264,
    "MoM": 0.00488599348534202,
    "price": 192
  },
  {
    "zip": 98333,
    "city": "Fox Island",
    "latitude": 47.244053,
    "longitude": -122.6199,
    "QoQ": 0.0102100922835264,
    "YoY": 0.0700915141430948,
    "MoM": 0.00351082504388531,
    "price": 205
  },
  {
    "zip": 98335,
    "city": "Gig Harbor",
    "latitude": 47.301252,
    "longitude": -122.60562,
    "QoQ": 0.0198163363943934,
    "YoY": 0.0839969175443103,
    "MoM": 0.00595947556615018,
    "price": 189
  },
  {
    "zip": 98337,
    "city": "Bremerton",
    "latitude": 47.569167,
    "longitude": -122.63479,
    "QoQ": 0.0458952811893988,
    "YoY": 0.117403314917127,
    "MoM": 0.0163316582914573,
    "price": 146
  },
  {
    "zip": 98338,
    "city": "Graham",
    "latitude": 47.028423,
    "longitude": -122.291,
    "QoQ": 0.0152536360411493,
    "YoY": 0.0783722682743029,
    "MoM": 0.00421052631578947,
    "price": 150
  },
  {
    "zip": 98339,
    "city": "Port Hadlock",
    "latitude": 48.036882,
    "longitude": -122.7599,
    "QoQ": 0.00984736582964057,
    "YoY": 0.0405885337392187,
    "MoM": 0.00195407914020518,
    "price": 152
  },
  {
    "zip": 98340,
    "city": "Hansville",
    "latitude": 47.910628,
    "longitude": -122.57489,
    "QoQ": 0.0175953079178886,
    "YoY": 0.0246979865771812,
    "MoM": 0.00394529195160442,
    "price": 234
  },
  {
    "zip": 98342,
    "city": "Indianola",
    "latitude": 47.74878,
    "longitude": -122.53051,
    "QoQ": 0,
    "YoY": 0.0439398407549395,
    "MoM": -0.000564652738565782,
    "price": 238
  },
  {
    "zip": 98346,
    "city": "Kingston",
    "latitude": 47.807359,
    "longitude": -122.51962,
    "QoQ": 0.0149521531100478,
    "YoY": 0.0514250309789343,
    "MoM": 0.00384501626737652,
    "price": 198
  },
  {
    "zip": 98349,
    "city": "Lakebay",
    "latitude": 47.268551,
    "longitude": -122.76897,
    "QoQ": -0.0053475935828877,
    "YoY": 0.0280300039478879,
    "MoM": -0.00115074798619102,
    "price": 164
  },
  {
    "zip": 98351,
    "city": "Longbranch",
    "latitude": 47.200168,
    "longitude": -122.77537,
    "QoQ": -0.000658111220796315,
    "YoY": 0.024283305227656,
    "MoM": -0.00524074680641991,
    "price": 175
  },
  {
    "zip": 98354,
    "city": "Milton",
    "latitude": 47.248208,
    "longitude": -122.31737,
    "QoQ": 0.0164301717699776,
    "YoY": 0.0984665052461663,
    "MoM": 0.00257826887661142,
    "price": 164
  },
  {
    "zip": 98358,
    "city": "Nordland",
    "latitude": 48.058323,
    "longitude": -122.68794,
    "QoQ": -0.00310040543763415,
    "YoY": 0.0885416666666667,
    "MoM": -0.00214848412508952,
    "price": 246
  },
  {
    "zip": 98359,
    "city": "Olalla",
    "latitude": 47.43025,
    "longitude": -122.57159,
    "QoQ": 0.0329083901571302,
    "YoY": 0.0850202429149797,
    "MoM": 0.0104408352668213,
    "price": 183
  },
  {
    "zip": 98360,
    "city": "Orting",
    "latitude": 47.039607,
    "longitude": -122.14691,
    "QoQ": 0.00969367972082202,
    "YoY": 0.0991979738286197,
    "MoM": 0.00153846153846154,
    "price": 144
  },
  {
    "zip": 98361,
    "city": "Packwood",
    "latitude": 46.580048,
    "longitude": -121.61674,
    "QoQ": -0.0194465220643231,
    "YoY": 0.0053680981595092,
    "MoM": -0.00076219512195122,
    "price": 119
  },
  {
    "zip": 98365,
    "city": "Port Ludlow",
    "latitude": 47.907561,
    "longitude": -122.69416,
    "QoQ": 0.00339506172839506,
    "YoY": 0.0613777342474698,
    "MoM": 0.00123190637511549,
    "price": 181
  },
  {
    "zip": 98366,
    "city": "Port Orchard",
    "latitude": 47.53587,
    "longitude": -122.59905,
    "QoQ": 0.0232258064516129,
    "YoY": 0.0789115646258503,
    "MoM": 0.00634517766497462,
    "price": 171
  },
  {
    "zip": 98367,
    "city": "Port Orchard",
    "latitude": 47.470971,
    "longitude": -122.66335,
    "QoQ": 0.0267306374228924,
    "YoY": 0.0902474526928675,
    "MoM": 0.00943396226415094,
    "price": 168
  },
  {
    "zip": 98368,
    "city": "Port Townsend",
    "latitude": 48.100255,
    "longitude": -122.79736,
    "QoQ": 0.0177051413006469,
    "YoY": 0.105399408284024,
    "MoM": 0.00436827956989247,
    "price": 198
  },
  {
    "zip": 98370,
    "city": "Poulsbo",
    "latitude": 47.743302,
    "longitude": -122.63041,
    "QoQ": 0.0242675347736017,
    "YoY": 0.0852931953590467,
    "MoM": 0.00639720849084036,
    "price": 199
  },
  {
    "zip": 98371,
    "city": "Puyallup",
    "latitude": 47.196272,
    "longitude": -122.31577,
    "QoQ": 0.00964974982130093,
    "YoY": 0.062829194883371,
    "MoM": 0.00248403122782115,
    "price": 164
  },
  {
    "zip": 98372,
    "city": "Puyallup",
    "latitude": 47.198591,
    "longitude": -122.27131,
    "QoQ": 0.0161182001343183,
    "YoY": 0.0979680696661829,
    "MoM": 0.00331564986737401,
    "price": 164
  },
  {
    "zip": 98373,
    "city": "Puyallup",
    "latitude": 47.147862,
    "longitude": -122.31864,
    "QoQ": 0.0143126177024482,
    "YoY": 0.0947154471544715,
    "MoM": 0.00223297357647934,
    "price": 148
  },
  {
    "zip": 98374,
    "city": "Puyallup",
    "latitude": 47.140045,
    "longitude": -122.26012,
    "QoQ": 0.0126913027248974,
    "YoY": 0.0795861520095503,
    "MoM": 0.00184638109305761,
    "price": 145
  },
  {
    "zip": 98375,
    "city": "Puyallup",
    "latitude": 47.112477,
    "longitude": -122.32247,
    "QoQ": 0.00789577575996842,
    "YoY": 0.0749473684210526,
    "MoM": 0.000784006272050176,
    "price": 132
  },
  {
    "zip": 98376,
    "city": "Quilcene",
    "latitude": 47.826111,
    "longitude": -122.85233,
    "QoQ": -0.00443369609028618,
    "YoY": 0.0819097678493211,
    "MoM": 0.0016220600162206,
    "price": 187
  },
  {
    "zip": 98377,
    "city": "Randle",
    "latitude": 46.525156,
    "longitude": -121.85094,
    "QoQ": -0.0048661800486618,
    "YoY": 0.0107084019769358,
    "MoM": -0.00324939073923639,
    "price": 91
  },
  {
    "zip": 98380,
    "city": "Seabeck",
    "latitude": 47.596122,
    "longitude": -122.89456,
    "QoQ": 0.0167077513010134,
    "YoY": 0.0709751875360646,
    "MoM": 0.00270124257158293,
    "price": 194
  },
  {
    "zip": 98383,
    "city": "Silverdale",
    "latitude": 47.667257,
    "longitude": -122.69055,
    "QoQ": 0.0140385243225596,
    "YoY": 0.0669872895912058,
    "MoM": 0.00420303912059489,
    "price": 174
  },
  {
    "zip": 98387,
    "city": "Spanaway",
    "latitude": 47.077796,
    "longitude": -122.40517,
    "QoQ": 0.00663423264042459,
    "YoY": 0.0781620085267646,
    "MoM": 0.00131984161900572,
    "price": 137
  },
  {
    "zip": 98388,
    "city": "Steilacoom",
    "latitude": 47.164965,
    "longitude": -122.6005,
    "QoQ": 0.00194805194805195,
    "YoY": 0.0546821599453178,
    "MoM": 0.00129785853341986,
    "price": 168
  },
  {
    "zip": 98390,
    "city": "Sumner",
    "latitude": 47.196364,
    "longitude": -122.1887,
    "QoQ": 0.0299625468164794,
    "YoY": 0.0982428115015975,
    "MoM": 0.00769512641993404,
    "price": 169
  },
  {
    "zip": 98392,
    "city": "Suquamish",
    "latitude": 47.735065,
    "longitude": -122.55751,
    "QoQ": 0.00515463917525773,
    "YoY": 0.0327395281656235,
    "MoM": 0.000466417910447761,
    "price": 170
  },
  {
    "zip": 98394,
    "city": "Vaughn",
    "latitude": 47.336226,
    "longitude": -122.78309,
    "QoQ": 0.00756514429812272,
    "YoY": -0.0153340635268346,
    "MoM": 0.00139236981342244,
    "price": 186
  },
  {
    "zip": 98402,
    "city": "Tacoma",
    "latitude": 47.247671,
    "longitude": -122.43971,
    "QoQ": 0.0253654342218401,
    "YoY": 0.0451358457493427,
    "MoM": 0.00931019889970377,
    "price": 229
  },
  {
    "zip": 98403,
    "city": "Tacoma",
    "latitude": 47.263971,
    "longitude": -122.45879,
    "QoQ": 0.0200054809536859,
    "YoY": 0.0844988344988345,
    "MoM": 0.00594594594594595,
    "price": 211
  },
  {
    "zip": 98404,
    "city": "Tacoma",
    "latitude": 47.212421,
    "longitude": -122.4156,
    "QoQ": 0.0237556561085973,
    "YoY": 0.129837702871411,
    "MoM": 0.00667408231368187,
    "price": 137
  },
  {
    "zip": 98405,
    "city": "Tacoma",
    "latitude": 47.248953,
    "longitude": -122.46599,
    "QoQ": 0.0305,
    "YoY": 0.142461197339246,
    "MoM": 0.00634765625,
    "price": 151
  },
  {
    "zip": 98406,
    "city": "Tacoma",
    "latitude": 47.26302,
    "longitude": -122.49518,
    "QoQ": 0.0221691678035471,
    "YoY": 0.0937956204379562,
    "MoM": 0.00638012088650101,
    "price": 182
  },
  {
    "zip": 98407,
    "city": "Tacoma",
    "latitude": 47.28392,
    "longitude": -122.50433,
    "QoQ": 0.0198252688172043,
    "YoY": 0.111721611721612,
    "MoM": 0.00396956665564009,
    "price": 195
  },
  {
    "zip": 98408,
    "city": "Tacoma",
    "latitude": 47.209021,
    "longitude": -122.44498,
    "QoQ": 0.0194986072423398,
    "YoY": 0.118581907090465,
    "MoM": 0.00494233937397035,
    "price": 136
  },
  {
    "zip": 98409,
    "city": "Tacoma",
    "latitude": 47.208987,
    "longitude": -122.48053,
    "QoQ": 0.0210589651022864,
    "YoY": 0.11424819435325,
    "MoM": 0.00414201183431953,
    "price": 135
  },
  {
    "zip": 98418,
    "city": "Tacoma",
    "latitude": 47.066193,
    "longitude": -122.113223,
    "QoQ": 0.0221316249271986,
    "YoY": 0.107954545454545,
    "MoM": 0.00457927876359473,
    "price": 141
  },
  {
    "zip": 98422,
    "city": "Tacoma",
    "latitude": 47.296007,
    "longitude": -122.39835,
    "QoQ": 0.0110911270983213,
    "YoY": 0.0714739517153748,
    "MoM": 0.00207961972667855,
    "price": 172
  },
  {
    "zip": 98424,
    "city": "Tacoma",
    "latitude": 47.242186,
    "longitude": -122.35916,
    "QoQ": 0.0181474480151229,
    "YoY": 0.116963915387806,
    "MoM": 0.00372717107715244,
    "price": 146
  },
  {
    "zip": 98443,
    "city": "Tacoma",
    "latitude": 47.202874,
    "longitude": -122.37678,
    "QoQ": 0.0158730158730159,
    "YoY": 0.0544061302681992,
    "MoM": 0.00364697301239971,
    "price": 156
  },
  {
    "zip": 98444,
    "city": "Tacoma",
    "latitude": 47.153571,
    "longitude": -122.4485,
    "QoQ": 0.019672131147541,
    "YoY": 0.124096385542169,
    "MoM": 0.00430570505920344,
    "price": 138
  },
  {
    "zip": 98445,
    "city": "Tacoma",
    "latitude": 47.148269,
    "longitude": -122.41196,
    "QoQ": 0.0142201834862385,
    "YoY": 0.104947526236882,
    "MoM": 0.00317604355716878,
    "price": 136
  },
  {
    "zip": 98446,
    "city": "Tacoma",
    "latitude": 47.1309,
    "longitude": -122.37589,
    "QoQ": 0.0211681693453548,
    "YoY": 0.0863219349457882,
    "MoM": 0.00385356454720617,
    "price": 149
  },
  {
    "zip": 98465,
    "city": "Tacoma",
    "latitude": 47.247735,
    "longitude": -122.52818,
    "QoQ": 0.015625,
    "YoY": 0.0496568429551877,
    "MoM": 0.00347356233114628,
    "price": 166
  },
  {
    "zip": 98466,
    "city": "Tacoma",
    "latitude": 47.230402,
    "longitude": -122.53272,
    "QoQ": 0.0146208772526352,
    "YoY": 0.0638146167557932,
    "MoM": 0.00403768506056528,
    "price": 163
  },
  {
    "zip": 98467,
    "city": "University Place",
    "latitude": 47.203946,
    "longitude": -122.52996,
    "QoQ": 0.0161094224924012,
    "YoY": 0.0801292407108239,
    "MoM": 0.00360252176523567,
    "price": 162
  },
  {
    "zip": 98498,
    "city": "Lakewood",
    "latitude": 47.16062,
    "longitude": -122.55877,
    "QoQ": 0.0143712574850299,
    "YoY": 0.0798980025499362,
    "MoM": 0.00355450236966825,
    "price": 145
  },
  {
    "zip": 98499,
    "city": "Lakewood",
    "latitude": 47.16632,
    "longitude": -122.50844,
    "QoQ": 0.0292452830188679,
    "YoY": 0.105369807497467,
    "MoM": 0.00738688827331487,
    "price": 145
  },
  {
    "zip": 98501,
    "city": "Olympia",
    "latitude": 47.014718,
    "longitude": -122.8819,
    "QoQ": 0.0145143282471157,
    "YoY": 0.0813169377231257,
    "MoM": 0.00331247699668752,
    "price": 151
  },
  {
    "zip": 98502,
    "city": "Olympia",
    "latitude": 47.071484,
    "longitude": -122.97702,
    "QoQ": 0.0152671755725191,
    "YoY": 0.0671043034281546,
    "MoM": 0.00411805078929307,
    "price": 161
  },
  {
    "zip": 98503,
    "city": "Lacey",
    "latitude": 47.027082,
    "longitude": -122.80359,
    "QoQ": 0.0104355716878403,
    "YoY": 0.0534531693472091,
    "MoM": 0.00315315315315315,
    "price": 135
  },
  {
    "zip": 98506,
    "city": "Olympia",
    "latitude": 47.069339,
    "longitude": -122.87249,
    "QoQ": 0.017428350116189,
    "YoY": 0.0886862826357231,
    "MoM": 0.00382116927779901,
    "price": 167
  },
  {
    "zip": 98512,
    "city": "Olympia",
    "latitude": 46.969793,
    "longitude": -122.99802,
    "QoQ": 0.0118826587448942,
    "YoY": 0.0711477987421384,
    "MoM": 0.00405305821665438,
    "price": 146
  },
  {
    "zip": 98513,
    "city": "Olympia",
    "latitude": 47.00581,
    "longitude": -122.75285,
    "QoQ": 0.00651890482398957,
    "YoY": 0.0484382073336351,
    "MoM": 0.00173010380622837,
    "price": 140
  },
  {
    "zip": 98516,
    "city": "Olympia",
    "latitude": 47.085046,
    "longitude": -122.78376,
    "QoQ": 0.0166666666666667,
    "YoY": 0.0840429470566457,
    "MoM": 0.00445969125214408,
    "price": 151
  },
  {
    "zip": 98520,
    "city": "Aberdeen",
    "latitude": 46.972965,
    "longitude": -123.81923,
    "QoQ": 0.0100603621730382,
    "YoY": 0.0425752855659398,
    "MoM": 0,
    "price": 65
  },
  {
    "zip": 98524,
    "city": "Allyn",
    "latitude": 47.374343,
    "longitude": -122.8388,
    "QoQ": 0.0365853658536585,
    "YoY": 0.110204081632653,
    "MoM": 0.00890207715133531,
    "price": 152
  },
  {
    "zip": 98528,
    "city": "Belfair",
    "latitude": 47.445292,
    "longitude": -122.88417,
    "QoQ": 0.0276478094427903,
    "YoY": 0.0395869191049914,
    "MoM": 0.00876826722338205,
    "price": 155
  },
  {
    "zip": 98531,
    "city": "Centralia",
    "latitude": 46.728383,
    "longitude": -122.95142,
    "QoQ": -0.0053475935828877,
    "YoY": 0.0369337979094077,
    "MoM": 0,
    "price": 105
  },
  {
    "zip": 98532,
    "city": "Chehalis",
    "latitude": 46.630721,
    "longitude": -123.01599,
    "QoQ": -0.00859453993933266,
    "YoY": 0.0698308783415166,
    "MoM": -0.00254323499491353,
    "price": 119
  },
  {
    "zip": 98537,
    "city": "Cosmopolis",
    "latitude": 46.899189,
    "longitude": -123.6907,
    "QoQ": 0.0256410256410256,
    "YoY": 0.077613855035279,
    "MoM": 0.0120481927710843,
    "price": 95
  },
  {
    "zip": 98541,
    "city": "Elma",
    "latitude": 47.03575,
    "longitude": -123.40713,
    "QoQ": 0.0210803689064559,
    "YoY": 0.115910727141829,
    "MoM": 0.00518806744487678,
    "price": 102
  },
  {
    "zip": 98546,
    "city": "Grapeview",
    "latitude": 47.321442,
    "longitude": -122.92935,
    "QoQ": 0.0335526315789474,
    "YoY": 0.101683029453015,
    "MoM": 0.00899165061014772,
    "price": 236
  },
  {
    "zip": 98547,
    "city": "Grayland",
    "latitude": 46.781978,
    "longitude": -124.08111,
    "QoQ": -0.0184147317854283,
    "YoY": -0.0740181268882175,
    "MoM": 0,
    "price": 98
  },
  {
    "zip": 98548,
    "city": "Hoodsport",
    "latitude": 47.446725,
    "longitude": -123.21175,
    "QoQ": -0.0204620462046205,
    "YoY": -0.0619469026548673,
    "MoM": -0.00201748486886348,
    "price": 122
  },
  {
    "zip": 98550,
    "city": "Hoquiam",
    "latitude": 47.026913,
    "longitude": -123.91732,
    "QoQ": 0.00998751560549313,
    "YoY": 0.0743691899070385,
    "MoM": 0.00247831474597274,
    "price": 55
  },
  {
    "zip": 98555,
    "city": "Lilliwaup",
    "latitude": 47.521614,
    "longitude": -123.06888,
    "QoQ": -0.0313479623824451,
    "YoY": -0.011727078891258,
    "MoM": -0.0032258064516129,
    "price": 173
  },
  {
    "zip": 98557,
    "city": "Mccleary",
    "latitude": 47.054419,
    "longitude": -123.2739,
    "QoQ": 0.0174947515745276,
    "YoY": 0.12975912975913,
    "MoM": 0.00206753962784287,
    "price": 103
  },
  {
    "zip": 98563,
    "city": "Montesano",
    "latitude": 47.034615,
    "longitude": -123.60332,
    "QoQ": 0.0161490683229814,
    "YoY": 0.148070175438596,
    "MoM": 0.00368098159509202,
    "price": 100
  },
  {
    "zip": 98568,
    "city": "Oakville",
    "latitude": 46.84066,
    "longitude": -123.25649,
    "QoQ": -0.0134303301622832,
    "YoY": -0.0248893805309735,
    "MoM": 0,
    "price": 113
  },
  {
    "zip": 98569,
    "city": "Ocean Shores",
    "latitude": 46.983877,
    "longitude": -124.15607,
    "QoQ": 0.0144329896907216,
    "YoY": 0.0821114369501466,
    "MoM": 0.00271739130434783,
    "price": 116
  },
  {
    "zip": 98570,
    "city": "Onalaska",
    "latitude": 46.593526,
    "longitude": -122.65346,
    "QoQ": 0.00316957210776545,
    "YoY": 0.0561735261401557,
    "MoM": 0.00211081794195251,
    "price": 118
  },
  {
    "zip": 98576,
    "city": "Rainier",
    "latitude": 46.871178,
    "longitude": -122.67573,
    "QoQ": 0.00673854447439353,
    "YoY": 0.0481758652946679,
    "MoM": 0.00223613595706619,
    "price": 140
  },
  {
    "zip": 98579,
    "city": "Rochester",
    "latitude": 46.814438,
    "longitude": -123.08647,
    "QoQ": 0.00977777777777778,
    "YoY": 0.0336669699727025,
    "MoM": 0.00220555800617556,
    "price": 141
  },
  {
    "zip": 98580,
    "city": "Roy",
    "latitude": 46.954282,
    "longitude": -122.48754,
    "QoQ": 0.0199733688415446,
    "YoY": 0.0661099512874043,
    "MoM": 0.00360301342941369,
    "price": 154
  },
  {
    "zip": 98584,
    "city": "Shelton",
    "latitude": 47.224044,
    "longitude": -123.10538,
    "QoQ": 0.00908574673480977,
    "YoY": 0.0102330869812393,
    "MoM": 0.00338791643139469,
    "price": 122
  },
  {
    "zip": 98588,
    "city": "Tahuya",
    "latitude": 47.433993,
    "longitude": -123.02078,
    "QoQ": 0.0433829973707274,
    "YoY": 0.150797486708555,
    "MoM": 0.0162185232607768,
    "price": 210
  },
  {
    "zip": 98589,
    "city": "Tenino",
    "latitude": 46.857968,
    "longitude": -122.8326,
    "QoQ": 0.00343347639484979,
    "YoY": 0.0205150589262331,
    "MoM": 0.00472711645896003,
    "price": 140
  },
  {
    "zip": 98591,
    "city": "Toledo",
    "latitude": 46.433226,
    "longitude": -122.80083,
    "QoQ": 0.0235124760076775,
    "YoY": 0.0491883915395967,
    "MoM": 0.00660689004247287,
    "price": 130
  },
  {
    "zip": 98592,
    "city": "Union",
    "latitude": 47.33179,
    "longitude": -123.07403,
    "QoQ": 0.0181347150259067,
    "YoY": 0.0256633318834276,
    "MoM": 0.00769230769230769,
    "price": 135
  },
  {
    "zip": 98595,
    "city": "Westport",
    "latitude": 46.887187,
    "longitude": -124.10735,
    "QoQ": 0.00714853057982526,
    "YoY": 0.0111642743221691,
    "MoM": 0.00316455696202532,
    "price": 106
  },
  {
    "zip": 98596,
    "city": "Winlock",
    "latitude": 46.493247,
    "longitude": -122.92262,
    "QoQ": 0.0183171150543789,
    "YoY": 0.0874083129584352,
    "MoM": 0.00451722190852626,
    "price": 112
  },
  {
    "zip": 98597,
    "city": "Yelm",
    "latitude": 46.893352,
    "longitude": -122.56719,
    "QoQ": 0.010126582278481,
    "YoY": 0.0691318327974277,
    "MoM": 0.00251256281407035,
    "price": 122
  },
  {
    "zip": 98601,
    "city": "Amboy",
    "latitude": 45.935656,
    "longitude": -122.43726,
    "QoQ": 0.0169888693614528,
    "YoY": 0.172972972972973,
    "MoM": 0.00550246162757023,
    "price": 183
  },
  {
    "zip": 98604,
    "city": "Battle Ground",
    "latitude": 45.791345,
    "longitude": -122.51789,
    "QoQ": 0.0174870466321244,
    "YoY": 0.113394755492558,
    "MoM": 0.00608389369196286,
    "price": 175
  },
  {
    "zip": 98606,
    "city": "Brush Prairie",
    "latitude": 45.73451,
    "longitude": -122.48034,
    "QoQ": 0.0294736842105263,
    "YoY": 0.104391468005019,
    "MoM": 0.00940366972477064,
    "price": 198
  },
  {
    "zip": 98607,
    "city": "Camas",
    "latitude": 45.60916,
    "longitude": -122.40547,
    "QoQ": 0.0182058047493404,
    "YoY": 0.0852080989876265,
    "MoM": 0.00599582898852972,
    "price": 184
  },
  {
    "zip": 98611,
    "city": "Castle Rock",
    "latitude": 46.308371,
    "longitude": -122.8987,
    "QoQ": 0.0271655561250641,
    "YoY": 0.0492146596858639,
    "MoM": 0.0085556114745848,
    "price": 128
  },
  {
    "zip": 98625,
    "city": "Kalama",
    "latitude": 46.015873,
    "longitude": -122.79718,
    "QoQ": 0.0229007633587786,
    "YoY": 0.0751689189189189,
    "MoM": 0.00592651126037139,
    "price": 144
  },
  {
    "zip": 98626,
    "city": "Kelso",
    "latitude": 46.150433,
    "longitude": -122.88566,
    "QoQ": 0.028169014084507,
    "YoY": 0.0749665327978581,
    "MoM": 0.00752823086574655,
    "price": 115
  },
  {
    "zip": 98629,
    "city": "La Center",
    "latitude": 45.8768,
    "longitude": -122.62193,
    "QoQ": 0.0276896452264205,
    "YoY": 0.104806201550388,
    "MoM": 0.0107801418439716,
    "price": 177
  },
  {
    "zip": 98632,
    "city": "Longview",
    "latitude": 46.156082,
    "longitude": -122.98043,
    "QoQ": 0.0310786106032907,
    "YoY": 0.0463821892393321,
    "MoM": 0.00834326579261025,
    "price": 117
  },
  {
    "zip": 98642,
    "city": "Ridgefield",
    "latitude": 45.795825,
    "longitude": -122.69804,
    "QoQ": 0.0211132437619962,
    "YoY": 0.0975537872089596,
    "MoM": 0.00784844384303112,
    "price": 180
  },
  {
    "zip": 98645,
    "city": "Silverlake",
    "latitude": 46.318482,
    "longitude": -122.7757,
    "QoQ": 0.00917431192660551,
    "YoY": 0.0396975425330813,
    "MoM": 0.00045475216007276,
    "price": 128
  },
  {
    "zip": 98660,
    "city": "Vancouver",
    "latitude": 45.652255,
    "longitude": -122.69009,
    "QoQ": 0.0203000882612533,
    "YoY": 0.101476893758933,
    "MoM": 0.00609225413402959,
    "price": 218
  },
  {
    "zip": 98661,
    "city": "Vancouver",
    "latitude": 45.63873,
    "longitude": -122.62846,
    "QoQ": 0.0282935455349248,
    "YoY": 0.120423892100193,
    "MoM": 0.00867302688638335,
    "price": 169
  },
  {
    "zip": 98662,
    "city": "Vancouver",
    "latitude": 45.671806,
    "longitude": -122.57894,
    "QoQ": 0.0242759795570698,
    "YoY": 0.111367837338262,
    "MoM": 0.00711892797319933,
    "price": 152
  },
  {
    "zip": 98663,
    "city": "Vancouver",
    "latitude": 45.647667,
    "longitude": -122.66162,
    "QoQ": 0.0279424216765453,
    "YoY": 0.128777312877731,
    "MoM": 0.0078870900788709,
    "price": 190
  },
  {
    "zip": 98664,
    "city": "Vancouver",
    "latitude": 45.62104,
    "longitude": -122.57947,
    "QoQ": 0.0353642948444823,
    "YoY": 0.134983652498832,
    "MoM": 0.00997506234413965,
    "price": 176
  },
  {
    "zip": 98665,
    "city": "Vancouver",
    "latitude": 45.681271,
    "longitude": -122.66712,
    "QoQ": 0.0218068535825545,
    "YoY": 0.117546848381601,
    "MoM": 0.00613496932515337,
    "price": 163
  },
  {
    "zip": 98671,
    "city": "Washougal",
    "latitude": 45.594465,
    "longitude": -122.28112,
    "QoQ": 0.022793878215565,
    "YoY": 0.113829787234043,
    "MoM": 0.00576368876080692,
    "price": 174
  },
  {
    "zip": 98674,
    "city": "Woodland",
    "latitude": 45.928662,
    "longitude": -122.70284,
    "QoQ": 0.020415603353992,
    "YoY": 0.092079594225517,
    "MoM": 0.00719683339330694,
    "price": 157
  },
  {
    "zip": 98675,
    "city": "Yacolt",
    "latitude": 45.843674,
    "longitude": -122.39221,
    "QoQ": 0.0209440450140669,
    "YoY": 0.130103806228374,
    "MoM": 0.00616142945163278,
    "price": 179
  },
  {
    "zip": 98682,
    "city": "Vancouver",
    "latitude": 45.67309,
    "longitude": -122.51319,
    "QoQ": 0.0221479314667781,
    "YoY": 0.104787714543812,
    "MoM": 0.00575657894736842,
    "price": 162
  },
  {
    "zip": 98683,
    "city": "Vancouver",
    "latitude": 45.604075,
    "longitude": -122.51035,
    "QoQ": 0.0228187919463087,
    "YoY": 0.100758396533044,
    "MoM": 0.00627269725982172,
    "price": 171
  },
  {
    "zip": 98684,
    "city": "Vancouver",
    "latitude": 45.627459,
    "longitude": -122.52023,
    "QoQ": 0.0239253852392539,
    "YoY": 0.111845002201673,
    "MoM": 0.00717989629038692,
    "price": 162
  },
  {
    "zip": 98685,
    "city": "Vancouver",
    "latitude": 45.709555,
    "longitude": -122.68473,
    "QoQ": 0.0211640211640212,
    "YoY": 0.0919377652050919,
    "MoM": 0.00684708183893055,
    "price": 163
  },
  {
    "zip": 98686,
    "city": "Vancouver",
    "latitude": 45.712623,
    "longitude": -122.63419,
    "QoQ": 0.0255813953488372,
    "YoY": 0.106848332735748,
    "MoM": 0.00816459830176355,
    "price": 166
  },
  {
    "zip": 98801,
    "city": "Wenatchee",
    "latitude": 47.425497,
    "longitude": -120.32881,
    "QoQ": 0.00128865979381443,
    "YoY": 0.0933395872420263,
    "MoM": 0.00128865979381443,
    "price": 164
  },
  {
    "zip": 98815,
    "city": "Cashmere",
    "latitude": 47.522546,
    "longitude": -120.48966,
    "QoQ": 0.00460829493087558,
    "YoY": 0.0724508050089445,
    "MoM": 0.00376726663876099,
    "price": 177
  },
  {
    "zip": 98822,
    "city": "Entiat",
    "latitude": 47.782158,
    "longitude": -120.35944,
    "QoQ": -0.0256410256410256,
    "YoY": 0.0107416879795396,
    "MoM": -0.00151591712986357,
    "price": 178
  },
  {
    "zip": 98823,
    "city": "Ephrata",
    "latitude": 47.297368,
    "longitude": -119.57129,
    "QoQ": 0.0105691056910569,
    "YoY": 0.0687876182287188,
    "MoM": 0,
    "price": 90
  },
  {
    "zip": 98826,
    "city": "Leavenworth",
    "latitude": 47.728186,
    "longitude": -120.73874,
    "QoQ": -0.0210124164278892,
    "YoY": 0.0315330426031533,
    "MoM": -0.00453221107154419,
    "price": 255
  },
  {
    "zip": 98828,
    "city": "Malaga",
    "latitude": 47.333821,
    "longitude": -120.19929,
    "QoQ": -0.0124058484714222,
    "YoY": 0.0873170731707317,
    "MoM": -0.00357621814930711,
    "price": 164
  },
  {
    "zip": 98831,
    "city": "Manson",
    "latitude": 47.915227,
    "longitude": -120.12934,
    "QoQ": -0.0188562596599691,
    "YoY": 0.0576474508497168,
    "MoM": -0.00967238689547582,
    "price": 242
  },
  {
    "zip": 98837,
    "city": "Moses Lake",
    "latitude": 47.133606,
    "longitude": -119.28455,
    "QoQ": -0.00148809523809524,
    "YoY": 0.0323076923076923,
    "MoM": 0,
    "price": 94
  },
  {
    "zip": 98847,
    "city": "Peshastin",
    "latitude": 47.552462,
    "longitude": -120.60457,
    "QoQ": -0.00929054054054054,
    "YoY": 0.0736842105263158,
    "MoM": -0.000851788756388416,
    "price": 193
  },
  {
    "zip": 98848,
    "city": "Quincy",
    "latitude": 47.18227,
    "longitude": -119.85868,
    "QoQ": -0.00256410256410256,
    "YoY": 0.0408026755852843,
    "MoM": -0.00192431045542014,
    "price": 108
  },
  {
    "zip": 98851,
    "city": "Soap Lake",
    "latitude": 47.400024,
    "longitude": -119.4624,
    "QoQ": 0.0142517814726841,
    "YoY": 0.0351515151515151,
    "MoM": 0.00352526439482961,
    "price": 82
  },
  {
    "zip": 98856,
    "city": "Twisp",
    "latitude": 48.359904,
    "longitude": -120.13051,
    "QoQ": 0.0087527352297593,
    "YoY": 0.149625935162095,
    "MoM": 0.00260983036102653,
    "price": 190
  },
  {
    "zip": 98857,
    "city": "Warden",
    "latitude": 46.970666,
    "longitude": -119.0672,
    "QoQ": -0.0125391849529781,
    "YoY": -0.0540540540540541,
    "MoM": -0.0125391849529781,
    "price": 67
  },
  {
    "zip": 98862,
    "city": "Winthrop",
    "latitude": 48.488543,
    "longitude": -120.24261,
    "QoQ": -0.00493358633776091,
    "YoY": 0.0371835443037975,
    "MoM": 0.00306044376434583,
    "price": 205
  },
  {
    "zip": 98901,
    "city": "Yakima",
    "latitude": 46.616199,
    "longitude": -120.46481,
    "QoQ": 0.00777934936350778,
    "YoY": 0.0462555066079295,
    "MoM": 0.00210970464135021,
    "price": 103
  },
  {
    "zip": 98902,
    "city": "Yakima",
    "latitude": 46.595248,
    "longitude": -120.53102,
    "QoQ": 0.0125490196078431,
    "YoY": 0.0411290322580645,
    "MoM": 0.0046692607003891,
    "price": 109
  },
  {
    "zip": 98903,
    "city": "Yakima",
    "latitude": 46.550348,
    "longitude": -120.62097,
    "QoQ": 0.00265076209410205,
    "YoY": 0.0662438336856942,
    "MoM": 0,
    "price": 111
  },
  {
    "zip": 98908,
    "city": "Yakima",
    "latitude": 46.605303,
    "longitude": -120.61762,
    "QoQ": 0.0113412228796844,
    "YoY": 0.0469627360898418,
    "MoM": 0.00244379276637341,
    "price": 127
  },
  {
    "zip": 98922,
    "city": "Cle Elum",
    "latitude": 47.19377,
    "longitude": -120.91733,
    "QoQ": 0.0873860182370821,
    "YoY": 0.22203245089667,
    "MoM": 0.0483516483516484,
    "price": 193
  },
  {
    "zip": 98926,
    "city": "Ellensburg",
    "latitude": 47.009726,
    "longitude": -120.52364,
    "QoQ": 0.015774378585086,
    "YoY": 0.10275038920602,
    "MoM": 0.00283152430391694,
    "price": 142
  },
  {
    "zip": 98930,
    "city": "Grandview",
    "latitude": 46.260129,
    "longitude": -119.90614,
    "QoQ": 0.0249056603773585,
    "YoY": 0.0837988826815642,
    "MoM": 0.00592592592592593,
    "price": 103
  },
  {
    "zip": 98932,
    "city": "Granger",
    "latitude": 46.345166,
    "longitude": -120.1843,
    "QoQ": 0,
    "YoY": 0.04,
    "MoM": -0.00166944908180301,
    "price": 90
  },
  {
    "zip": 98935,
    "city": "Mabton",
    "latitude": 46.177732,
    "longitude": -120.02966,
    "QoQ": 0.0245971162001696,
    "YoY": 0.0863309352517986,
    "MoM": 0.00666666666666667,
    "price": 90
  },
  {
    "zip": 98936,
    "city": "Moxee",
    "latitude": 46.540842,
    "longitude": -120.33322,
    "QoQ": 0.00730337078651685,
    "YoY": 0.0454810495626822,
    "MoM": 0.000558035714285714,
    "price": 106
  },
  {
    "zip": 98937,
    "city": "Naches",
    "latitude": 46.71207,
    "longitude": -120.97097,
    "QoQ": 0.0137509549274255,
    "YoY": 0.0432389937106918,
    "MoM": 0.0053030303030303,
    "price": 122
  },
  {
    "zip": 98938,
    "city": "Outlook",
    "latitude": 46.364164,
    "longitude": -120.09871,
    "QoQ": 0.0223503965392934,
    "YoY": 0.0457227138643068,
    "MoM": 0.0063875088715401,
    "price": 95
  },
  {
    "zip": 98941,
    "city": "Roslyn",
    "latitude": 47.224876,
    "longitude": -120.99286,
    "QoQ": -0.0550401978973408,
    "YoY": 0.00858085808580858,
    "MoM": -0.00195950359242325,
    "price": 133
  },
  {
    "zip": 98942,
    "city": "Selah",
    "latitude": 46.726395,
    "longitude": -120.56997,
    "QoQ": 0.00957661290322581,
    "YoY": 0.0454070981210856,
    "MoM": 0.00401002506265664,
    "price": 129
  },
  {
    "zip": 98944,
    "city": "Sunnyside",
    "latitude": 46.342102,
    "longitude": -119.99,
    "QoQ": 0.0104,
    "YoY": 0.0472636815920398,
    "MoM": 0.00317712470214456,
    "price": 94
  },
  {
    "zip": 98947,
    "city": "Tieton",
    "latitude": 46.707735,
    "longitude": -120.75713,
    "QoQ": -0.0094658553076403,
    "YoY": 0.0209059233449477,
    "MoM": -0.00340136054421769,
    "price": 108
  },
  {
    "zip": 98948,
    "city": "Toppenish",
    "latitude": 46.35653,
    "longitude": -120.33462,
    "QoQ": 0.0164383561643836,
    "YoY": 0.0579847908745247,
    "MoM": 0.0018001800180018,
    "price": 87
  },
  {
    "zip": 98951,
    "city": "Wapato",
    "latitude": 46.457731,
    "longitude": -120.46721,
    "QoQ": 0.0130111524163569,
    "YoY": 0.0613437195715677,
    "MoM": 0.00553505535055351,
    "price": 83
  },
  {
    "zip": 98953,
    "city": "Zillah",
    "latitude": 46.418933,
    "longitude": -120.26699,
    "QoQ": 0.000608642726719416,
    "YoY": 0.0236612702366127,
    "MoM": 0.00182815356489945,
    "price": 113
  },
  {
    "zip": 99001,
    "city": "Airway Heights",
    "latitude": 47.642922,
    "longitude": -117.59149,
    "QoQ": 0.0120562625586068,
    "YoY": 0.113485630066323,
    "MoM": 0.00332005312084993,
    "price": 108
  },
  {
    "zip": 99003,
    "city": "Chattaroy",
    "latitude": 47.921687,
    "longitude": -117.29378,
    "QoQ": 0.00708162504658964,
    "YoY": 0.0730738681493249,
    "MoM": 0.0037147102526003,
    "price": 153
  },
  {
    "zip": 99004,
    "city": "Cheney",
    "latitude": 47.466974,
    "longitude": -117.60575,
    "QoQ": 0.0123589468027942,
    "YoY": 0.0735042735042735,
    "MoM": 0.00266098988823842,
    "price": 117
  },
  {
    "zip": 99005,
    "city": "Colbert",
    "latitude": 47.844289,
    "longitude": -117.37274,
    "QoQ": 0.018646408839779,
    "YoY": 0.0766423357664234,
    "MoM": 0.00716968248548993,
    "price": 157
  },
  {
    "zip": 99006,
    "city": "Deer Park",
    "latitude": 47.966471,
    "longitude": -117.48145,
    "QoQ": 0.0140070035017509,
    "YoY": 0.104030501089325,
    "MoM": 0.00247279920870425,
    "price": 132
  },
  {
    "zip": 99009,
    "city": "Elk",
    "latitude": 48.041663,
    "longitude": -117.24891,
    "QoQ": 0.014018691588785,
    "YoY": 0.111111111111111,
    "MoM": 0.004164738546969,
    "price": 133
  },
  {
    "zip": 99016,
    "city": "Greenacres",
    "latitude": 47.648693,
    "longitude": -117.15116,
    "QoQ": 0.0178236397748593,
    "YoY": 0.0694923607688517,
    "MoM": 0.00323624595469256,
    "price": 139
  },
  {
    "zip": 99019,
    "city": "Liberty Lake",
    "latitude": 47.656171,
    "longitude": -117.08628,
    "QoQ": 0.017632241813602,
    "YoY": 0.0663650075414781,
    "MoM": 0.00712250712250712,
    "price": 152
  },
  {
    "zip": 99021,
    "city": "Mead",
    "latitude": 47.81108,
    "longitude": -117.22306,
    "QoQ": 0.0168350168350168,
    "YoY": 0.0824372759856631,
    "MoM": 0.00499168053244592,
    "price": 140
  },
  {
    "zip": 99022,
    "city": "Medical Lake",
    "latitude": 47.583754,
    "longitude": -117.68812,
    "QoQ": 0.0166666666666667,
    "YoY": 0.0523289246693502,
    "MoM": 0.00328947368421053,
    "price": 117
  },
  {
    "zip": 99025,
    "city": "Newman Lake",
    "latitude": 47.751434,
    "longitude": -117.06934,
    "QoQ": 0.00942507068803016,
    "YoY": 0.0656716417910448,
    "MoM": 0.00280898876404494,
    "price": 149
  },
  {
    "zip": 99027,
    "city": "Otis Orchards",
    "latitude": 47.703698,
    "longitude": -117.12007,
    "QoQ": 0.0279598077763215,
    "YoY": 0.0768878718535469,
    "MoM": 0.00770877944325482,
    "price": 143
  },
  {
    "zip": 99037,
    "city": "Veradale",
    "latitude": 47.643346,
    "longitude": -117.19993,
    "QoQ": 0.00936246098974588,
    "YoY": 0.0714623757690487,
    "MoM": 0.00221336874723329,
    "price": 133
  },
  {
    "zip": 99133,
    "city": "Grand Coulee",
    "latitude": 47.947097,
    "longitude": -119.00713,
    "QoQ": 0.0036231884057971,
    "YoY": 0.0992063492063492,
    "MoM": 0,
    "price": 71
  },
  {
    "zip": 99201,
    "city": "Spokane",
    "latitude": 47.663945,
    "longitude": -117.43185,
    "QoQ": 0.0207125103562552,
    "YoY": 0.0854625550660793,
    "MoM": 0.00735895339329518,
    "price": 94
  },
  {
    "zip": 99202,
    "city": "Spokane",
    "latitude": 47.656692,
    "longitude": -117.37899,
    "QoQ": 0.0163265306122449,
    "YoY": 0.0714285714285714,
    "MoM": 0.00565428109854604,
    "price": 103
  },
  {
    "zip": 99203,
    "city": "Spokane",
    "latitude": 47.629091,
    "longitude": -117.40636,
    "QoQ": 0.00553505535055351,
    "YoY": 0.0754810064134188,
    "MoM": 0.00137804317868627,
    "price": 153
  },
  {
    "zip": 99204,
    "city": "Spokane",
    "latitude": 47.648941,
    "longitude": -117.43174,
    "QoQ": 0.0225225225225225,
    "YoY": 0.112745098039216,
    "MoM": 0.00442477876106195,
    "price": 120
  },
  {
    "zip": 99205,
    "city": "Spokane",
    "latitude": 47.69399,
    "longitude": -117.43979,
    "QoQ": 0.0115562403697997,
    "YoY": 0.0631578947368421,
    "MoM": 0.00459066564651875,
    "price": 128
  },
  {
    "zip": 99206,
    "city": "Spokane",
    "latitude": 47.646994,
    "longitude": -117.25912,
    "QoQ": 0.0129650507328072,
    "YoY": 0.0664688427299703,
    "MoM": 0.00503355704697987,
    "price": 128
  },
  {
    "zip": 99207,
    "city": "Spokane",
    "latitude": 47.693741,
    "longitude": -117.38829,
    "QoQ": 0.0217821782178218,
    "YoY": 0.0828961175236096,
    "MoM": 0.0078125,
    "price": 103
  },
  {
    "zip": 99208,
    "city": "Spokane",
    "latitude": 47.740491,
    "longitude": -117.43916,
    "QoQ": 0.0175438596491228,
    "YoY": 0.0978907517577069,
    "MoM": 0.00445324096981692,
    "price": 128
  },
  {
    "zip": 99212,
    "city": "Spokane",
    "latitude": 47.668926,
    "longitude": -117.30668,
    "QoQ": 0.0188552188552189,
    "YoY": 0.0947901591895803,
    "MoM": 0.0039814200398142,
    "price": 125
  },
  {
    "zip": 99216,
    "city": "Spokane",
    "latitude": 47.665819,
    "longitude": -117.21699,
    "QoQ": 0.0149432157800359,
    "YoY": 0.0579439252336449,
    "MoM": 0.00473372781065089,
    "price": 125
  },
  {
    "zip": 99217,
    "city": "Spokane",
    "latitude": 47.707542,
    "longitude": -117.33776,
    "QoQ": 0.0137885751805647,
    "YoY": 0.0942593905031892,
    "MoM": 0.00455432661027977,
    "price": 123
  },
  {
    "zip": 99218,
    "city": "Spokane",
    "latitude": 47.751674,
    "longitude": -117.4124,
    "QoQ": 0.0174672489082969,
    "YoY": 0.103103629668595,
    "MoM": 0.00431034482758621,
    "price": 127
  },
  {
    "zip": 99223,
    "city": "Spokane",
    "latitude": 47.614744,
    "longitude": -117.35892,
    "QoQ": 0.014745308310992,
    "YoY": 0.0773244781783681,
    "MoM": 0.00397877984084881,
    "price": 135
  },
  {
    "zip": 99224,
    "city": "Spokane",
    "latitude": 47.632573,
    "longitude": -117.49326,
    "QoQ": 0.0123309466984885,
    "YoY": 0.0590928006658344,
    "MoM": 0.00434096290449882,
    "price": 136
  },
  {
    "zip": 99301,
    "city": "Pasco",
    "latitude": 46.270249,
    "longitude": -119.09462,
    "QoQ": 0.0150375939849624,
    "YoY": 0.101003764115433,
    "MoM": 0.00285714285714286,
    "price": 115
  },
  {
    "zip": 99320,
    "city": "Benton City",
    "latitude": 46.263399,
    "longitude": -119.47909,
    "QoQ": -0.00988947062245491,
    "YoY": 0.0435315757204169,
    "MoM": -0.00292911540714704,
    "price": 125
  },
  {
    "zip": 99323,
    "city": "Burbank",
    "latitude": 46.191158,
    "longitude": -118.87987,
    "QoQ": 0.0304367004852228,
    "YoY": 0.088029809035864,
    "MoM": 0.00689655172413793,
    "price": 132
  },
  {
    "zip": 99324,
    "city": "College Place",
    "latitude": 46.044936,
    "longitude": -118.38466,
    "QoQ": 0.0161879895561358,
    "YoY": 0.058759521218716,
    "MoM": 0.00412796697626419,
    "price": 135
  },
  {
    "zip": 99326,
    "city": "Connell",
    "latitude": 46.675704,
    "longitude": -118.8823,
    "QoQ": 0.0363890832750175,
    "YoY": 0.19147224456959,
    "MoM": 0.00406779661016949,
    "price": 104
  },
  {
    "zip": 99336,
    "city": "Kennewick",
    "latitude": 46.210957,
    "longitude": -119.16369,
    "QoQ": 0.00728291316526611,
    "YoY": 0.0588928150765607,
    "MoM": 0.00446927374301676,
    "price": 132
  },
  {
    "zip": 99337,
    "city": "Kennewick",
    "latitude": 46.169982,
    "longitude": -119.10456,
    "QoQ": 0.0101860053144376,
    "YoY": 0.0703894885030502,
    "MoM": 0.00440334654337296,
    "price": 138
  },
  {
    "zip": 99338,
    "city": "Kennewick",
    "latitude": 46.192356,
    "longitude": -119.23982,
    "QoQ": -0.000669568128557081,
    "YoY": 0.0764514965741075,
    "MoM": -0.00267290344136318,
    "price": 149
  },
  {
    "zip": 99343,
    "city": "Mesa",
    "latitude": 46.581454,
    "longitude": -119.12107,
    "QoQ": 0,
    "YoY": 0.1,
    "MoM": -0.00136518771331058,
    "price": 116
  },
  {
    "zip": 99350,
    "city": "Prosser",
    "latitude": 46.208571,
    "longitude": -119.74507,
    "QoQ": 0.0192407696307852,
    "YoY": 0.0687022900763359,
    "MoM": 0.00616016427104723,
    "price": 137
  },
  {
    "zip": 99352,
    "city": "Richland",
    "latitude": 46.279657,
    "longitude": -119.28137,
    "QoQ": 0.00363504180298073,
    "YoY": 0.0656117329216519,
    "MoM": 0.00108774474256708,
    "price": 145
  },
  {
    "zip": 99353,
    "city": "West Richland",
    "latitude": 46.297139,
    "longitude": -119.35457,
    "QoQ": 0.00798175598631699,
    "YoY": 0.0958677685950413,
    "MoM": 0.00264650283553875,
    "price": 148
  }
]
